[
{
    "longitude":-71.071458,
    "location":"31 St. James Ave.",
    "latitude":42.352043,
    "city":"Boston/Back Bay",
    "agent":"Patriot News"
},
{
  "longitude":-71.117764,
  "location":"49 White St. (Porter Square)",
  "latitude":42.390406,
  "city":"Cambridge",
  "agent":"Star Market"
},
{
  "longitude":-71.061158,
  "location":"68 Harrison Ave.",
  "latitude":42.352201,
  "city":"Boston/Back Bay",
  "agent":"East West Bank"
},
{
  "longitude":-71.07399,
  "location":"141 Massachusetts Ave.",
  "latitude":42.354199,
  "city":"Boston/Back Bay",
  "agent":"Tedeschi's"
},
{
  "longitude":-71.131625,
  "location":"104 Harvard St.",
  "latitude":42.353121,
  "city":"Allston",
  "agent":"All Checks Cashed"
},
{
  "longitude":-71.12536,
  "location":"1065 Commonwealth Ave.",
  "latitude":42.352328,
  "city":"Boston/Longwood Medical Area",
  "agent":"Shaw's Supermarket"
},
{
  "longitude":-71.08356,
  "location":"55 Warren Street",
  "latitude":42.330092,
  "city":"Roxbury",
  "agent":"Boston Check Cashers"
},
{
  "longitude":-71.033521,
  "location":"50 Washington St.",
  "latitude":42.395604,
  "city":"Chelsea",
  "agent":"Central Square Check Cashing"
},
{
  "longitude":-71.049657,
  "location":"45 Morrissey Blvd.",
  "latitude":42.318955,
  "city":"Dorchester",
  "agent":"Shaw's Supermarket"
},
{
  "longitude":-71.084847,
  "location":"610 Blue Hill Ave.",
  "latitude":42.304737,
  "city":"Dorchester",
  "agent":"Boston Check Cashers"
},
{
  "longitude":-71.064978,
  "location":"588 Columbia Rd.",
  "latitude":42.318447,
  "city":"Dorchester",
  "agent":"Boston Check Cashers"
},
{
  "longitude":-71.039228,
  "location":"230 Meridian St. (Central Sq.)",
  "latitude":42.377124,
  "city":"East Boston",
  "agent":"Central Square Check Cashing"
},
{
  "longitude":-70.948935,
  "location":"43 State St. (Market & Broad St.)",
  "latitude":42.463011,
  "city":"Lynn",
  "agent":"Shaw's Supermarket"
},
{
  "longitude":-71.075277,
  "location":"299 Pleasant St. (across from Malden Station)",
  "latitude":42.428525,
  "city":"Malden",
  "agent":"Elmwood Pharmacy"
},
{
  "longitude":-71.121025,
  "location":"Massachusetts Ave at Harvard Square Pass Sales Office (Mezzanine Level)",
  "latitude":42.379344,
  "city":"Cambridge",
  "agent":"Harvard Station"
},
{
  "longitude":-70.953312,
  "location":"1501 Bedford St.",
  "latitude":42.144569,
  "city":"Abington",
  "agent":"Marylou's News"
},
{
  "longitude":-71.155143,
  "location":"1868 Centre St.",
  "latitude":42.286834,
  "city":"West Roxbury",
  "agent":"West Roxbury Pharmacy"
},
{
  "longitude":-70.944557,
  "location":"562 Washington St.",
  "latitude":42.108793,
  "city":"Abington",
  "agent":"Marylou's News"
},
{
  "longitude":-71.02541,
  "location":"829 N. Main St.",
  "latitude":42.106342,
  "city":"Brockton/Montello",
  "agent":"Montello News"
},
{
  "longitude":-71.086178,
  "location":"1059 Tremont Street (Ruggles Station)",
  "latitude":42.337388,
  "city":"Roxbury",
  "agent":"All Checks Cashed"
},
{
  "longitude":-71.129522,
  "location":"30 Corinth St.",
  "latitude":42.287247,
  "city":"Roslindale",
  "agent":"Village Neighborhood Market"
},
{
  "longitude":-71.413321,
  "location":"100 Gaspee St.",
  "latitude":41.830816,
  "city":"Providence",
  "agent":"Cafe' LaFrance"
},
{
  "longitude":-71.140337,
  "location":"100 Atlantic Ave.",
  "latitude":42.518517,
  "city":"Woburn",
  "agent":"LAZ Parking"
},
{
  "longitude":-71.091285,
  "location":"1170 Blue Hill Ave.",
  "latitude":42.285247,
  "city":"Mattapan",
  "agent":"Boston Check Cashers"
},
{
  "longitude":-71.191449,
  "location":"63 B Union St.",
  "latitude":42.331424,
  "city":"Newton",
  "agent":"Piccadilly Market"
},
{
  "longitude":-71.122141,
  "location":"4 College Ave. (Davis Sq. Station)",
  "latitude":42.398045,
  "city":"Somerville",
  "agent":"Tedeschi's"
},
{
  "longitude":-71.792865,
  "location":"100 Main St.",
  "latitude":42.582822,
  "city":"Fitchburg",
  "agent":"Montachusett RTA"
},
{
  "longitude":-71.417913,
  "location":"438 Waverly St.",
  "latitude":42.277404,
  "city":"Framingham",
  "agent":"Garbarino's"
},
{
  "longitude":-71.411819,
  "location":"Forge Park Station",
  "latitude":42.094656,
  "city":"Franklin",
  "agent":"Forge Park T for Two"
},
{
  "longitude":-70.829287,
  "location":"Holmes St.",
  "latitude":42.005842,
  "city":"Halifax",
  "agent":"Lindy's General Store"
},
{
  "longitude":-71.32513,
  "location":"10 Rockwood Rd.",
  "latitude":42.121464,
  "city":"Norfolk",
  "agent":"Norfolk Food Mart"
},
{
  "longitude":-71.200032,
  "location":"145 Broadway St.",
  "latitude":42.190532,
  "city":"Norwood",
  "agent":"Broadway Services"
},
{
  "longitude":-70.923486,
  "location":"401 South Ave.",
  "latitude":42.084401,
  "city":"Whitman",
  "agent":"Regal Marketplace"
},
{
  "longitude":-71.039314,
  "location":"19 Maverick Sq.",
  "latitude":42.370054,
  "city":"East Boston",
  "agent":"Boston Check Cashers"
},
{
  "longitude":-71.104374,
  "location":"112 Medford St.",
  "latitude":42.398964,
  "city":"Medford",
  "agent":"Boston Check Cashers"
},
{
  "longitude":-71.057467,
  "location":"1 Congress St.",
  "latitude":42.361588,
  "city":"Boston/Faneuil Hall Marketplace",
  "agent":"Haymarket Foodbasket"
},
{
  "longitude":-70.964813,
  "location":"62 Market Square",
  "latitude":42.463581,
  "city":"Lynn",
  "agent":"All Checks Cashed"
},
{
  "longitude":-71.053047,
  "location":"177 State Street",
  "latitude":42.360351,
  "city":"Boston/Financial District",
  "agent":"Tedeschi's"
},
{
  "longitude":-71.467223,
  "location":"1 West Union St.",
  "latitude":42.256666,
  "city":"Ashland",
  "agent":"Lucky Farm"
},
{
  "longitude":-71.07502,
  "location":"1283 Mass Ave.",
  "latitude":42.339514,
  "city":"Dorchester",
  "agent":"Boston Check Cashers"
},
{
  "longitude":-71.05618,
  "location":"One Financial Ctr.",
  "latitude":42.351567,
  "city":"Boston/Financial District",
  "agent":"Patriot News"
},
{
  "longitude":-71.063519,
  "location":"508 Geneva Ave.",
  "latitude":42.30004,
  "city":"Dorchester",
  "agent":"Boston Check Cashers"
},
{
  "longitude":-71.05618,
  "location":"One International Place",
  "latitude":42.351567,
  "city":"Boston/Financial District",
  "agent":"Patriot News"
},
{
  "longitude":-71.063218,
  "location":"211 Merrimack St.",
  "latitude":42.355056,
  "city":"Lawrence",
  "agent":"Lawrence Downtown Parking"
},
{
  "longitude":-71.148834,
  "location":"1912 Beacon St.",
  "latitude":42.337388,
  "city":"Brighton",
  "agent":"Tedeschi's"
},
{
  "longitude":-71.006098,
  "location":"130 Granite St.",
  "latitude":42.246501,
  "city":"Quincy",
  "agent":"Star Market"
},
{
  "longitude":-71.064892,
  "location":"14 McGrath Highway",
  "latitude":42.376142,
  "city":"Somerville",
  "agent":"Shaw's Supermarket"
},
{
  "longitude":-71.129866,
  "location":"230 Harvard Ave.",
  "latitude":42.350045,
  "city":"Allston",
  "agent":"East West Bank"
},
{
  "longitude":-71.137419,
  "location":"1383 Commonwealth Ave.",
  "latitude":42.348744,
  "city":"Allston",
  "agent":"Lee's Market"
},
{
  "longitude":-71.0867585,
  "location":"291 Huntington ave.",
  "latitude":42.3415051,
  "city":"Boston/Back Bay",
  "agent":"Symphony Market"
},
{
  "longitude":-71.126003,
  "location":"1418 Beacon St.",
  "latitude":42.341925,
  "city":"Brookline",
  "agent":"Bay State Foods"
},
{
  "longitude":-71.066523,
  "location":"51 Austin St.",
  "latitude":42.375476,
  "city":"Charlestown",
  "agent":"Johnnie's Foodmaster"
},
{
  "longitude":-71.1083462,
  "location":"1026-1028 Beacon St.",
  "latitude":42.3461672,
  "city":"Brookline",
  "agent":"Johnnie's Foodmaster"
},
{
  "longitude":-71.133385,
  "location":"105 Alewife Brook Pkwy",
  "latitude":42.407647,
  "city":"Somerville",
  "agent":"Johnnie's Foodmaster"
},
{
  "longitude":-71.071758,
  "location":"595 Washington St.",
  "latitude":42.29131,
  "city":"Dorchester",
  "agent":"All Checks Cashed"
},
{
  "longitude":-71.103044,
  "location":"282 Centre St.",
  "latitude":42.323492,
  "city":"Jamaica Plain",
  "agent":"All Checks Cashed"
},
{
  "longitude":-71.096177,
  "location":"12 Union Square",
  "latitude":42.380231,
  "city":"Somerville",
  "agent":"All Checks Cashed"
},
{
  "longitude":-71.081672,
  "location":"2101 Washington St.",
  "latitude":42.332186,
  "city":"Roxbury",
  "agent":"Tropical Foods"
},
{
  "longitude":-71.112871,
  "location":"3720 Washington St.",
  "latitude":42.301532,
  "city":"Jamaica Plain",
  "agent":"Forest Hills Check Cashing"
},
{
  "longitude":-71.033649,
  "location":"150 Bennington St.",
  "latitude":42.37779,
  "city":"East Boston",
  "agent":"Sava's Market"
},
{
  "longitude":-71.006184,
  "location":"1016 Bennington St.",
  "latitude":42.387744,
  "city":"East Boston",
  "agent":"Orient Heights Food Mart"
},
{
  "longitude":-70.994682,
  "location":"161 Shirley Ave.",
  "latitude":42.40828,
  "city":"Revere",
  "agent":"Revere Beach Food Mart"
},
{
  "longitude":-71.101928,
  "location":"522 Massachusetts Ave.",
  "latitude":42.364886,
  "city":"Cambridge",
  "agent":"Boston Check Cashers"
},
{
  "longitude":-71.081629,
  "location":"366 Warren St.",
  "latitude":42.319082,
  "city":"Roxbury",
  "agent":"Boston Check Cashers"
},
{
  "longitude":-71.060188,
  "location":"2 Center Plaza",
  "latitude":42.3595669,
  "city":"Boston/at City Hall Plaza",
  "agent":"The Lobby Shop at 2 Center Plaza"
},
{
  "longitude":-71.0941229,
  "location":"1589 Blue Hill Ave.",
  "latitude":42.2695308,
  "city":"Mattapan",
  "agent":"Boston Check Cashers"
},
{
  "longitude":-70.9919441,
  "location":"219 Quincy Ave.",
  "latitude":42.2402829,
  "city":"Quincy",
  "agent":"East West Bank"
},
{
  "longitude":-71.0026954,
  "location":"550 Lee Burbank Highway",
  "latitude":42.40683019999999,
  "city":"Revere",
  "agent":"Boston Check Cashers"
},
{
  "longitude":-70.725364,
  "location":"71 Front Street",
  "latitude":42.1939411,
  "city":"Scituate",
  "agent":"Village Market"
},
{
  "longitude":-71.0594996,
  "location":"42 Court St.",
  "latitude":42.35907419999999,
  "city":"Boston/Beacon Hill",
  "agent":"Boston Mart"
},
{
  "longitude":-71.1884202,
  "location":"164 Main St.",
  "latitude":42.3675356,
  "city":"Watertown",
  "agent":"Tedeschi's"
},
{
  "longitude":-71.13083759999999,
  "location":"1219 Commonwealth Ave.",
  "latitude":42.3508365,
  "city":"Allston",
  "agent":"Tedeschi's"
},
{
  "longitude":-71.13852899999999,
  "location":"509 Cambridge St.",
  "latitude":42.353455,
  "city":"Allston",
  "agent":"Store 24"
},
{
  "longitude":-71.13233960000001,
  "location":"157 Brighton Ave.",
  "latitude":42.35327119999999,
  "city":"Allston",
  "agent":"Tedeschi's"
},
{
  "longitude":-71.2447866,
  "location":"2040 Commonwealth Ave.",
  "latitude":42.34696479999999,
  "city":"Newton",
  "agent":"Star Market"
},
{
  "longitude":-71.1260872,
  "location":"1377 Hyde Park Ave.",
  "latitude":42.251801,
  "city":"Hyde Park",
  "agent":"Shaw's Supermarket"
},
{
  "longitude":0.0,
  "location":"53 Huntington Ave.",
  "latitude":0.0,
  "city":"Boston/Back Bay",
  "agent":"Shaw's Supermarket"
},
{
  "longitude":-71.1394992,
  "location":"1717 Beacon St.",
  "latitude":42.3381668,
  "city":"Brookline",
  "agent":"Star Market"
},
{
  "longitude":-70.99291939999999,
  "location":"209 Revere Beach Pkwy",
  "latitude":42.3995257,
  "city":"Revere",
  "agent":"Shaw's Supermarket"
},
{
  "longitude":-70.874768,
  "location":"911 Main St.",
  "latitude":42.0416208,
  "city":"Hanson",
  "agent":"Village Mini Mart"
},
{
  "longitude":-71.0993474,
  "location":"20 Sidney St. (University Park)",
  "latitude":42.3614828,
  "city":"Cambridge",
  "agent":"Star Market"
},
{
  "longitude":-71.0341207,
  "location":"8 Washington Ave. (Bellingham Sq.)",
  "latitude":42.393059,
  "city":"Chelsea",
  "agent":"Tedeschi's"
},
{
  "longitude":-71.0558022,
  "location":"160 Federal Street",
  "latitude":42.3540739,
  "city":"Boston/Financial District",
  "agent":"Patriot News"
},
{
  "longitude":-71.06612439999999,
  "location":"34 Essex St.",
  "latitude":42.456215,
  "city":"Melrose",
  "agent":"Shaw's Supermarket"
},
{
  "longitude":-71.0404772,
  "location":"246 Border St.",
  "latitude":42.3766674,
  "city":"East Boston",
  "agent":"Shaw's Supermarket"
},
{
  "longitude":-71.0993855,
  "location":"275 Prospect St.",
  "latitude":42.3722268,
  "city":"Cambridge",
  "agent":"7-Eleven"
},
{
  "longitude":-71.10550789999999,
  "location":"750 Massachusetts Ave.",
  "latitude":42.3661731,
  "city":"Cambridge",
  "agent":"7-Eleven"
},
{
  "longitude":-71.0375822,
  "location":"673 East Broadway",
  "latitude":42.3353456,
  "city":"South Boston",
  "agent":"7-Eleven"
},
{
  "longitude":-71.1355693,
  "location":"1633 Beacon St.",
  "latitude":42.3389733,
  "city":"Brookline",
  "agent":"7-Eleven"
},
{
  "longitude":-71.04617089999999,
  "location":"473 West Broadway",
  "latitude":42.3355438,
  "city":"South Boston",
  "agent":"7-Eleven "
},
{
  "longitude":-71.39274569999999,
  "location":"251 West Central St.",
  "latitude":42.282416,
  "city":"Natick",
  "agent":"7-Eleven "
},
{
  "longitude":-71.1508036,
  "location":"2002 Beacon St.",
  "latitude":42.336046,
  "city":"Brighton",
  "agent":"7-Eleven"
},
{
  "longitude":-71.142574,
  "location":"1610 Commonwealth Ave.",
  "latitude":42.3433941,
  "city":"Brighton",
  "agent":"7-Eleven"
},
{
  "longitude":-71.1656722,
  "location":"584 Washington St.",
  "latitude":42.3500281,
  "city":"Brighton",
  "agent":"7-Eleven "
},
{
  "longitude":-70.9696451,
  "location":"51 Commercial St.",
  "latitude":42.2211568,
  "city":"Braintree",
  "agent":"7-Eleven"
},
{
  "longitude":-71.0644751,
  "location":"485-A Geneva Ave.",
  "latitude":42.2992807,
  "city":"Dorchester",
  "agent":"Quick Exchange"
},
{
  "longitude":-71.15554399999999,
  "location":"415-419 Washington St.",
  "latitude":42.3493022,
  "city":"Brighton",
  "agent":"Palace Spa"
},
{
  "longitude":-71.0890709,
  "location":"471 Salem St.",
  "latitude":42.4226636,
  "city":"Medford",
  "agent":"Johnnies Foodmaster"
},
{
  "longitude":-71.0625976,
  "location":"880 Main St.",
  "latitude":42.4649623,
  "city":"Melrose",
  "agent":"Johnnies Foodmaster"
},
{
  "longitude":-70.9555323,
  "location":"50 Boston St.",
  "latitude":42.4776424,
  "city":"Lynn",
  "agent":"Johnnies Foodmaster"
},
{
  "longitude":-71.03978,
  "location":"14 Maverick Square",
  "latitude":42.3693688,
  "city":"East Boston",
  "agent":"Tedeschi's"
},
{
  "longitude":-71.0312189,
  "location":"176-182 Washington Ave.",
  "latitude":42.3985722,
  "city":"Chelsea",
  "agent":"Tedeschi's"
},
{
  "longitude":-71.127156,
  "location":"4196 Washington St.",
  "latitude":42.2870925,
  "city":"Roslindale",
  "agent":"L'il Peach"
},
{
  "longitude":-71.06970969999999,
  "location":"4 River Street",
  "latitude":42.2718903,
  "city":"Dorchester",
  "agent":"Shaw's Supermarket"
},
{
  "longitude":-71.26153649999999,
  "location":"588 South Street",
  "latitude":42.3604427,
  "city":"Waltham",
  "agent":"Village Market"
},
{
  "longitude":-71.1371851,
  "location":"485 Cambridge Street, Allston, MA 02134",
  "latitude":42.3538514,
  "city":"Allston",
  "agent":"Start Super Market"
},
{
  "longitude":-71.0865877,
  "location":"135 Washington Street",
  "latitude":42.7725959,
  "city":"Haverhill",
  "agent":"Nathan's Sandwich and Variety Shop"
},
{
  "longitude":-71.3147767,
  "location":"101 Thorndike Street",
  "latitude":42.6371174,
  "city":"Lowell",
  "agent":"Mill City Tickets"
},
{
  "longitude":-70.8461998,
  "location":"340 Rockland Street",
  "latitude":42.2591433,
  "city":"Hingham",
  "agent":"Tedeschi Food Shops # 375"
},
{
  "longitude":-71.2838508,
  "location":"7 Mill Street",
  "latitude":41.9426392,
  "city":"Attleboro",
  "agent":"Dian's Depot at Attleboro Station"
},
{
  "longitude":-71.12979059999999,
  "location":"204-206 North Harvard St",
  "latitude":42.3628093,
  "city":"Allston",
  "agent":"7-Eleven"
},
{
  "longitude":-71.14678599999999,
  "location":"1700 Commonwealth Ave",
  "latitude":42.3413161,
  "city":"Brighton",
  "agent":"Chansky's Market"
},
{
  "longitude":-71.113592,
  "location":"850 Commonwealth Ave.",
  "latitude":42.3505675,
  "city":"Boston/Longwood Medical Area",
  "agent":"Commonwealth Ave. Sonoco"
},
{
  "longitude":-71.06391599999999,
  "location":"134 Water Street",
  "latitude":42.5031393,
  "city":"Wakefield",
  "agent":"Shaws Supermarket"
},
{
  "longitude":-71.0770749,
  "location":"1747 Washington Street",
  "latitude":42.336847,
  "city":"Boston/South End",
  "agent":"7-Eleven"
},
{
  "longitude":-71.1241508,
  "location":"1266 Hyde Park Ave",
  "latitude":42.2556153,
  "city":"Hyde Park",
  "agent":"Star Food Mart"
},
{
  "longitude":-71.1035746,
  "location":"4 Central Square",
  "latitude":42.364737,
  "city":"Cambridge",
  "agent":"Star Variety"
},
{
  "longitude":-71.79498199999999,
  "location":"2 Washington Square",
  "latitude":42.2612299,
  "city":"Worcester",
  "agent":"Union Station"
},
{
  "longitude":-71.12317,
  "location":"1239 River St.",
  "latitude":42.256167,
  "city":"Hyde Park",
  "agent":"Tedeschi's"
},
{
  "longitude":-71.10730579999999,
  "location":"32 Lincoln St.",
  "latitude":42.5216911,
  "city":"Reading",
  "agent":"Swiss Bakers"
},
{
  "longitude":-71.3548838,
  "location":"1249 Newport Ave",
  "latitude":41.8981097,
  "city":"South Attleboro",
  "agent":"Newport Ave Mobil"
},
{
  "longitude":-71.17719199999999,
  "location":"327 Main St.",
  "latitude":42.5504201,
  "city":"Wilmington",
  "agent":"Sunrise Market"
},
{
  "longitude":-71.1179377,
  "location":"1 Boylston St. (Chestnut Hill)",
  "latitude":42.3315816,
  "city":"Brookline",
  "agent":"Star Market"
},
{
  "longitude":-71.0537382,
  "location":"1998 Revere Beach Pkwy",
  "latitude":42.4028025,
  "city":"Everett",
  "agent":"All Checks Cashed"
},
{
  "longitude":-70.7838039,
  "location":"337 Gannett Rd.",
  "latitude":42.2192576,
  "city":"North Scituate",
  "agent":"Tedeschi's"
},
{
  "longitude":-70.8965122,
  "location":"181 South St.",
  "latitude":42.2412011,
  "city":"Hingham",
  "agent":"Tedeschi's"
},
{
  "longitude":-71.1040766,
  "location":"722 Huntington Ave.",
  "latitude":42.3341095,
  "city":"Boston/Longwood Medical Area",
  "agent":"7 - Eleven"
},
{
  "longitude":-70.9441023,
  "location":"585 North St.",
  "latitude":42.2293093,
  "city":"Weymouth",
  "agent":"7-Eleven"
},
{
  "longitude":-70.71863540000001,
  "location":"60 Marion Drive, Kingston, MA",
  "latitude":41.9769914,
  "city":"Kingston",
  "agent":"Coffee T & Thee"
}
]

