{"jsonapi":{"version":"1.0"},"included":[{"type":"stop","relationships":{"parent_station":{"data":null}},"links":{"self":"/stops/place-alfcl"},"id":"place-alfcl","attributes":{"wheelchair_boarding":1,"name":"Alewife","longitude":-71.142483,"latitude":42.395428}},{"type":"stop","relationships":{"parent_station":{"data":null}},"links":{"self":"/stops/place-andrw"},"id":"place-andrw","attributes":{"wheelchair_boarding":1,"name":"Andrew","longitude":-71.057655,"latitude":42.330154}},{"type":"stop","relationships":{"parent_station":{"data":null}},"links":{"self":"/stops/place-asmnl"},"id":"place-asmnl","attributes":{"wheelchair_boarding":1,"name":"Ashmont","longitude":-71.064489,"latitude":42.284652}},{"type":"stop","relationships":{"parent_station":{"data":null}},"links":{"self":"/stops/place-brdwy"},"id":"place-brdwy","attributes":{"wheelchair_boarding":1,"name":"Broadway","longitude":-71.056967,"latitude":42.342622}},{"type":"stop","relationships":{"parent_station":{"data":null}},"links":{"self":"/stops/place-brntn"},"id":"place-brntn","attributes":{"wheelchair_boarding":1,"name":"Braintree","longitude":-71.0011385,"latitude":42.2078543}},{"type":"stop","relationships":{"parent_station":{"data":null}},"links":{"self":"/stops/place-chmnl"},"id":"place-chmnl","attributes":{"wheelchair_boarding":1,"name":"Charles/MGH","longitude":-71.070628,"latitude":42.361166}},{"type":"stop","relationships":{"parent_station":{"data":null}},"links":{"self":"/stops/place-cntsq"},"id":"place-cntsq","attributes":{"wheelchair_boarding":1,"name":"Central","longitude":-71.103802,"latitude":42.365486}},{"type":"stop","relationships":{"parent_station":{"data":null}},"links":{"self":"/stops/place-davis"},"id":"place-davis","attributes":{"wheelchair_boarding":1,"name":"Davis","longitude":-71.121815,"latitude":42.39674}},{"type":"stop","relationships":{"parent_station":{"data":null}},"links":{"self":"/stops/place-dwnxg"},"id":"place-dwnxg","attributes":{"wheelchair_boarding":1,"name":"Downtown Crossing","longitude":-71.060225,"latitude":42.355518000000004}},{"type":"stop","relationships":{"parent_station":{"data":null}},"links":{"self":"/stops/place-fldcr"},"id":"place-fldcr","attributes":{"wheelchair_boarding":1,"name":"Fields Corner","longitude":-71.061667,"latitude":42.300093}},{"type":"stop","relationships":{"parent_station":{"data":null}},"links":{"self":"/stops/place-harsq"},"id":"place-harsq","attributes":{"wheelchair_boarding":1,"name":"Harvard","longitude":-71.118956,"latitude":42.373362}},{"type":"stop","relationships":{"parent_station":{"data":null}},"links":{"self":"/stops/place-jfk"},"id":"place-jfk","attributes":{"wheelchair_boarding":1,"name":"JFK/Umass","longitude":-71.052391,"latitude":42.320685}},{"type":"stop","relationships":{"parent_station":{"data":null}},"links":{"self":"/stops/place-knncl"},"id":"place-knncl","attributes":{"wheelchair_boarding":1,"name":"Kendall/MIT","longitude":-71.08617653,"latitude":42.36249079}},{"type":"stop","relationships":{"parent_station":{"data":null}},"links":{"self":"/stops/place-nqncy"},"id":"place-nqncy","attributes":{"wheelchair_boarding":1,"name":"North Quincy","longitude":-71.029583,"latitude":42.275275}},{"type":"stop","relationships":{"parent_station":{"data":null}},"links":{"self":"/stops/place-pktrm"},"id":"place-pktrm","attributes":{"wheelchair_boarding":1,"name":"Park Street","longitude":-71.0624242,"latitude":42.35639457}},{"type":"stop","relationships":{"parent_station":{"data":null}},"links":{"self":"/stops/place-portr"},"id":"place-portr","attributes":{"wheelchair_boarding":1,"name":"Porter","longitude":-71.119149,"latitude":42.3884}},{"type":"stop","relationships":{"parent_station":{"data":null}},"links":{"self":"/stops/place-qamnl"},"id":"place-qamnl","attributes":{"wheelchair_boarding":1,"name":"Quincy Adams","longitude":-71.007153,"latitude":42.233391}},{"type":"stop","relationships":{"parent_station":{"data":null}},"links":{"self":"/stops/place-qnctr"},"id":"place-qnctr","attributes":{"wheelchair_boarding":1,"name":"Quincy Center","longitude":-71.005409,"latitude":42.251809}},{"type":"stop","relationships":{"parent_station":{"data":null}},"links":{"self":"/stops/place-shmnl"},"id":"place-shmnl","attributes":{"wheelchair_boarding":1,"name":"Savin Hill","longitude":-71.053331,"latitude":42.31129}},{"type":"stop","relationships":{"parent_station":{"data":null}},"links":{"self":"/stops/place-smmnl"},"id":"place-smmnl","attributes":{"wheelchair_boarding":1,"name":"Shawmut","longitude":-71.06573796,"latitude":42.29312583}},{"type":"stop","relationships":{"parent_station":{"data":null}},"links":{"self":"/stops/place-sstat"},"id":"place-sstat","attributes":{"wheelchair_boarding":1,"name":"South Station","longitude":-71.055242,"latitude":42.352271}},{"type":"stop","relationships":{"parent_station":{"data":null}},"links":{"self":"/stops/place-wlsta"},"id":"place-wlsta","attributes":{"wheelchair_boarding":2,"name":"Wollaston","longitude":-71.0203369,"latitude":42.2665139}}],"data":[{"type":"stop","relationships":{"parent_station":{"data":{"type":"stop","id":"place-alfcl"}}},"links":{"self":"/stops/70061"},"id":"70061","attributes":{"wheelchair_boarding":0,"name":"Alewife","longitude":-71.142483,"latitude":42.395428}},{"type":"stop","relationships":{"parent_station":{"data":{"type":"stop","id":"place-davis"}}},"links":{"self":"/stops/70063"},"id":"70063","attributes":{"wheelchair_boarding":0,"name":"Davis - Inbound","longitude":-71.121815,"latitude":42.39674}},{"type":"stop","relationships":{"parent_station":{"data":{"type":"stop","id":"place-portr"}}},"links":{"self":"/stops/70065"},"id":"70065","attributes":{"wheelchair_boarding":0,"name":"Porter - Inbound","longitude":-71.119149,"latitude":42.3884}},{"type":"stop","relationships":{"parent_station":{"data":{"type":"stop","id":"place-harsq"}}},"links":{"self":"/stops/70067"},"id":"70067","attributes":{"wheelchair_boarding":0,"name":"Harvard - Inbound","longitude":-71.118956,"latitude":42.373362}},{"type":"stop","relationships":{"parent_station":{"data":{"type":"stop","id":"place-cntsq"}}},"links":{"self":"/stops/70069"},"id":"70069","attributes":{"wheelchair_boarding":0,"name":"Central - Inbound","longitude":-71.103802,"latitude":42.365486}},{"type":"stop","relationships":{"parent_station":{"data":{"type":"stop","id":"place-knncl"}}},"links":{"self":"/stops/70071"},"id":"70071","attributes":{"wheelchair_boarding":0,"name":"Kendall/MIT - Inbound","longitude":-71.08617653,"latitude":42.36249079}},{"type":"stop","relationships":{"parent_station":{"data":{"type":"stop","id":"place-chmnl"}}},"links":{"self":"/stops/70073"},"id":"70073","attributes":{"wheelchair_boarding":0,"name":"Charles/MGH - Inbound","longitude":-71.070628,"latitude":42.361166}},{"type":"stop","relationships":{"parent_station":{"data":{"type":"stop","id":"place-pktrm"}}},"links":{"self":"/stops/70075"},"id":"70075","attributes":{"wheelchair_boarding":0,"name":"Park Street - to Ashmont/Braintree","longitude":-71.0624242,"latitude":42.35639457}},{"type":"stop","relationships":{"parent_station":{"data":{"type":"stop","id":"place-dwnxg"}}},"links":{"self":"/stops/70077"},"id":"70077","attributes":{"wheelchair_boarding":0,"name":"Downtown Crossing - to Ashmont/Braintree","longitude":-71.060225,"latitude":42.355518000000004}},{"type":"stop","relationships":{"parent_station":{"data":{"type":"stop","id":"place-sstat"}}},"links":{"self":"/stops/70079"},"id":"70079","attributes":{"wheelchair_boarding":0,"name":"South Station - Outbound","longitude":-71.055242,"latitude":42.352271}},{"type":"stop","relationships":{"parent_station":{"data":{"type":"stop","id":"place-brdwy"}}},"links":{"self":"/stops/70081"},"id":"70081","attributes":{"wheelchair_boarding":0,"name":"Broadway - Outbound","longitude":-71.056967,"latitude":42.342622}},{"type":"stop","relationships":{"parent_station":{"data":{"type":"stop","id":"place-andrw"}}},"links":{"self":"/stops/70083"},"id":"70083","attributes":{"wheelchair_boarding":0,"name":"Andrew - Outbound","longitude":-71.057655,"latitude":42.330154}},{"type":"stop","relationships":{"parent_station":{"data":{"type":"stop","id":"place-jfk"}}},"links":{"self":"/stops/70085"},"id":"70085","attributes":{"wheelchair_boarding":0,"name":"JFK/UMASS Ashmont - Outbound","longitude":-71.052391,"latitude":42.320685}},{"type":"stop","relationships":{"parent_station":{"data":{"type":"stop","id":"place-shmnl"}}},"links":{"self":"/stops/70087"},"id":"70087","attributes":{"wheelchair_boarding":0,"name":"Savin Hill - Outbound","longitude":-71.053331,"latitude":42.31129}},{"type":"stop","relationships":{"parent_station":{"data":{"type":"stop","id":"place-fldcr"}}},"links":{"self":"/stops/70089"},"id":"70089","attributes":{"wheelchair_boarding":0,"name":"Fields Corner - Outbound","longitude":-71.061667,"latitude":42.300093}},{"type":"stop","relationships":{"parent_station":{"data":{"type":"stop","id":"place-smmnl"}}},"links":{"self":"/stops/70091"},"id":"70091","attributes":{"wheelchair_boarding":0,"name":"Shawmut - Outbound","longitude":-71.06573796,"latitude":42.29312583}},{"type":"stop","relationships":{"parent_station":{"data":{"type":"stop","id":"place-asmnl"}}},"links":{"self":"/stops/70093"},"id":"70093","attributes":{"wheelchair_boarding":0,"name":"Ashmont - Outbound","longitude":-71.064489,"latitude":42.284652}},{"type":"stop","relationships":{"parent_station":{"data":{"type":"stop","id":"place-jfk"}}},"links":{"self":"/stops/70095"},"id":"70095","attributes":{"wheelchair_boarding":0,"name":"JFK/UMASS Braintree - Outbound","longitude":-71.052391,"latitude":42.320685}},{"type":"stop","relationships":{"parent_station":{"data":{"type":"stop","id":"place-nqncy"}}},"links":{"self":"/stops/70097"},"id":"70097","attributes":{"wheelchair_boarding":0,"name":"North Quincy - Outbound","longitude":-71.029583,"latitude":42.275275}},{"type":"stop","relationships":{"parent_station":{"data":{"type":"stop","id":"place-wlsta"}}},"links":{"self":"/stops/70099"},"id":"70099","attributes":{"wheelchair_boarding":0,"name":"Wollaston - Outbound","longitude":-71.0203369,"latitude":42.2665139}},{"type":"stop","relationships":{"parent_station":{"data":{"type":"stop","id":"place-qnctr"}}},"links":{"self":"/stops/70101"},"id":"70101","attributes":{"wheelchair_boarding":0,"name":"Quincy Center - Outbound","longitude":-71.005409,"latitude":42.251809}},{"type":"stop","relationships":{"parent_station":{"data":{"type":"stop","id":"place-qamnl"}}},"links":{"self":"/stops/70103"},"id":"70103","attributes":{"wheelchair_boarding":0,"name":"Quincy Adams - Outbound","longitude":-71.007153,"latitude":42.233391}},{"type":"stop","relationships":{"parent_station":{"data":{"type":"stop","id":"place-brntn"}}},"links":{"self":"/stops/70105"},"id":"70105","attributes":{"wheelchair_boarding":0,"name":"Braintree","longitude":-71.0011385,"latitude":42.2078543}}]}