{"jsonapi":{"version":"1.0"},"data":[{"type":"stop","relationships":{"parent_station":{"data":null}},"links":{"self":"/stops/place-alfcl"},"id":"place-alfcl","attributes":{"wheelchair_boarding":1,"name":"Alewife","longitude":-71.142483,"latitude":42.395428}},{"type":"stop","relationships":{"parent_station":{"data":null}},"links":{"self":"/stops/place-davis"},"id":"place-davis","attributes":{"wheelchair_boarding":1,"name":"Davis","longitude":-71.121815,"latitude":42.39674}},{"type":"stop","relationships":{"parent_station":{"data":null}},"links":{"self":"/stops/place-portr"},"id":"place-portr","attributes":{"wheelchair_boarding":1,"name":"Porter","longitude":-71.119149,"latitude":42.3884}},{"type":"stop","relationships":{"parent_station":{"data":null}},"links":{"self":"/stops/place-harsq"},"id":"place-harsq","attributes":{"wheelchair_boarding":1,"name":"Harvard","longitude":-71.118956,"latitude":42.373362}},{"type":"stop","relationships":{"parent_station":{"data":null}},"links":{"self":"/stops/place-cntsq"},"id":"place-cntsq","attributes":{"wheelchair_boarding":1,"name":"Central","longitude":-71.103802,"latitude":42.365486}},{"type":"stop","relationships":{"parent_station":{"data":null}},"links":{"self":"/stops/place-knncl"},"id":"place-knncl","attributes":{"wheelchair_boarding":1,"name":"Kendall/MIT","longitude":-71.08617653,"latitude":42.36249079}},{"type":"stop","relationships":{"parent_station":{"data":null}},"links":{"self":"/stops/place-chmnl"},"id":"place-chmnl","attributes":{"wheelchair_boarding":1,"name":"Charles/MGH","longitude":-71.070628,"latitude":42.361166}},{"type":"stop","relationships":{"parent_station":{"data":null}},"links":{"self":"/stops/place-pktrm"},"id":"place-pktrm","attributes":{"wheelchair_boarding":1,"name":"Park Street","longitude":-71.0624242,"latitude":42.35639457}},{"type":"stop","relationships":{"parent_station":{"data":null}},"links":{"self":"/stops/place-dwnxg"},"id":"place-dwnxg","attributes":{"wheelchair_boarding":1,"name":"Downtown Crossing","longitude":-71.060225,"latitude":42.355518000000004}},{"type":"stop","relationships":{"parent_station":{"data":null}},"links":{"self":"/stops/place-sstat"},"id":"place-sstat","attributes":{"wheelchair_boarding":1,"name":"South Station","longitude":-71.055242,"latitude":42.352271}},{"type":"stop","relationships":{"parent_station":{"data":null}},"links":{"self":"/stops/place-brdwy"},"id":"place-brdwy","attributes":{"wheelchair_boarding":1,"name":"Broadway","longitude":-71.056967,"latitude":42.342622}},{"type":"stop","relationships":{"parent_station":{"data":null}},"links":{"self":"/stops/place-andrw"},"id":"place-andrw","attributes":{"wheelchair_boarding":1,"name":"Andrew","longitude":-71.057655,"latitude":42.330154}},{"type":"stop","relationships":{"parent_station":{"data":null}},"links":{"self":"/stops/place-jfk"},"id":"place-jfk","attributes":{"wheelchair_boarding":1,"name":"JFK/Umass","longitude":-71.052391,"latitude":42.320685}},{"type":"stop","relationships":{"parent_station":{"data":null}},"links":{"self":"/stops/place-shmnl"},"id":"place-shmnl","attributes":{"wheelchair_boarding":1,"name":"Savin Hill","longitude":-71.053331,"latitude":42.31129}},{"type":"stop","relationships":{"parent_station":{"data":null}},"links":{"self":"/stops/place-fldcr"},"id":"place-fldcr","attributes":{"wheelchair_boarding":1,"name":"Fields Corner","longitude":-71.061667,"latitude":42.300093}},{"type":"stop","relationships":{"parent_station":{"data":null}},"links":{"self":"/stops/place-smmnl"},"id":"place-smmnl","attributes":{"wheelchair_boarding":1,"name":"Shawmut","longitude":-71.06573796,"latitude":42.29312583}},{"type":"stop","relationships":{"parent_station":{"data":null}},"links":{"self":"/stops/place-asmnl"},"id":"place-asmnl","attributes":{"wheelchair_boarding":1,"name":"Ashmont","longitude":-71.064489,"latitude":42.284652}},{"type":"stop","relationships":{"parent_station":{"data":null}},"links":{"self":"/stops/place-nqncy"},"id":"place-nqncy","attributes":{"wheelchair_boarding":1,"name":"North Quincy","longitude":-71.029583,"latitude":42.275275}},{"type":"stop","relationships":{"parent_station":{"data":null}},"links":{"self":"/stops/place-wlsta"},"id":"place-wlsta","attributes":{"wheelchair_boarding":2,"name":"Wollaston","longitude":-71.0203369,"latitude":42.2665139}},{"type":"stop","relationships":{"parent_station":{"data":null}},"links":{"self":"/stops/place-qnctr"},"id":"place-qnctr","attributes":{"wheelchair_boarding":1,"name":"Quincy Center","longitude":-71.005409,"latitude":42.251809}},{"type":"stop","relationships":{"parent_station":{"data":null}},"links":{"self":"/stops/place-qamnl"},"id":"place-qamnl","attributes":{"wheelchair_boarding":1,"name":"Quincy Adams","longitude":-71.007153,"latitude":42.233391}},{"type":"stop","relationships":{"parent_station":{"data":null}},"links":{"self":"/stops/place-brntn"},"id":"place-brntn","attributes":{"wheelchair_boarding":1,"name":"Braintree","longitude":-71.0011385,"latitude":42.2078543}}]}