{"jsonapi":{"version":"1.0"},"data":[{"type":"stop","relationships":{"parent_station":{"data":null}},"links":{"self":"/stops/place-sstat"},"id":"place-sstat","attributes":{"wheelchair_boarding":1,"name":"South Station","longitude":-71.055242,"latitude":42.352271}},{"type":"stop","relationships":{"parent_station":{"data":null}},"links":{"self":"/stops/place-jfk"},"id":"place-jfk","attributes":{"wheelchair_boarding":1,"name":"JFK/Umass","longitude":-71.052391,"latitude":42.320685}},{"type":"stop","relationships":{"parent_station":{"data":null}},"links":{"self":"/stops/place-qnctr"},"id":"place-qnctr","attributes":{"wheelchair_boarding":1,"name":"Quincy Center","longitude":-71.005409,"latitude":42.251809}},{"type":"stop","relationships":{"parent_station":{"data":null}},"links":{"self":"/stops/Weymouth Landing/ East Braintree"},"id":"Weymouth Landing/ East Braintree","attributes":{"wheelchair_boarding":1,"name":"Weymouth Landing/East Braintree","longitude":-70.968152,"latitude":42.221503}},{"type":"stop","relationships":{"parent_station":{"data":null}},"links":{"self":"/stops/East Weymouth"},"id":"East Weymouth","attributes":{"wheelchair_boarding":1,"name":"East Weymouth","longitude":-70.9214,"latitude":42.2191}},{"type":"stop","relationships":{"parent_station":{"data":null}},"links":{"self":"/stops/West Hingham"},"id":"West Hingham","attributes":{"wheelchair_boarding":1,"name":"West Hingham","longitude":-70.902708,"latitude":42.235838}},{"type":"stop","relationships":{"parent_station":{"data":null}},"links":{"self":"/stops/Nantasket Junction"},"id":"Nantasket Junction","attributes":{"wheelchair_boarding":1,"name":"Nantasket Junction","longitude":-70.869205,"latitude":42.244959}},{"type":"stop","relationships":{"parent_station":{"data":null}},"links":{"self":"/stops/Cohasset"},"id":"Cohasset","attributes":{"wheelchair_boarding":1,"name":"Cohasset","longitude":-70.837529,"latitude":42.24421}},{"type":"stop","relationships":{"parent_station":{"data":null}},"links":{"self":"/stops/North Scituate"},"id":"North Scituate","attributes":{"wheelchair_boarding":1,"name":"North Scituate","longitude":-70.788602,"latitude":42.219528}},{"type":"stop","relationships":{"parent_station":{"data":null}},"links":{"self":"/stops/Greenbush"},"id":"Greenbush","attributes":{"wheelchair_boarding":1,"name":"Greenbush","longitude":-70.746641,"latitude":42.178776}}]}