{"jsonapi":{"version":"1.0"},"included":[{"type":"stop","relationships":{"parent_station":{"data":null}},"links":{"self":"/stops/place-mlmnl"},"id":"place-mlmnl","attributes":{"wheelchair_boarding":1,"name":"Malden Center","longitude":-71.07411,"latitude":42.426632}},{"type":"stop","relationships":{"parent_station":{"data":null}},"links":{"self":"/stops/place-north"},"id":"place-north","attributes":{"wheelchair_boarding":1,"name":"North Station","longitude":-71.06129,"latitude":42.365577}}],"data":[{"type":"stop","relationships":{"parent_station":{"data":{"type":"stop","id":"place-north"}}},"links":{"self":"/stops/North Station"},"id":"North Station","attributes":{"wheelchair_boarding":1,"name":"North Station","longitude":-71.061251,"latitude":42.365551}},{"type":"stop","relationships":{"parent_station":{"data":{"type":"stop","id":"place-mlmnl"}}},"links":{"self":"/stops/Malden Center"},"id":"Malden Center","attributes":{"wheelchair_boarding":1,"name":"Malden Center","longitude":-71.074227,"latitude":42.426407}},{"type":"stop","relationships":{"parent_station":{"data":null}},"links":{"self":"/stops/Wyoming Hill"},"id":"Wyoming Hill","attributes":{"wheelchair_boarding":2,"name":"Wyoming Hill","longitude":-71.069379,"latitude":42.451731}},{"type":"stop","relationships":{"parent_station":{"data":null}},"links":{"self":"/stops/Melrose Cedar Park"},"id":"Melrose Cedar Park","attributes":{"wheelchair_boarding":2,"name":"Melrose Cedar Park","longitude":-71.069789,"latitude":42.458768}},{"type":"stop","relationships":{"parent_station":{"data":null}},"links":{"self":"/stops/Melrose Highlands"},"id":"Melrose Highlands","attributes":{"wheelchair_boarding":1,"name":"Melrose Highlands","longitude":-71.068297,"latitude":42.469464}},{"type":"stop","relationships":{"parent_station":{"data":null}},"links":{"self":"/stops/Greenwood"},"id":"Greenwood","attributes":{"wheelchair_boarding":2,"name":"Greenwood","longitude":-71.067247,"latitude":42.483005}},{"type":"stop","relationships":{"parent_station":{"data":null}},"links":{"self":"/stops/Wakefield"},"id":"Wakefield","attributes":{"wheelchair_boarding":2,"name":"Wakefield","longitude":-71.075566,"latitude":42.502126}},{"type":"stop","relationships":{"parent_station":{"data":null}},"links":{"self":"/stops/Reading"},"id":"Reading","attributes":{"wheelchair_boarding":1,"name":"Reading","longitude":-71.10744,"latitude":42.52148}},{"type":"stop","relationships":{"parent_station":{"data":null}},"links":{"self":"/stops/North Wilmington"},"id":"North Wilmington","attributes":{"wheelchair_boarding":2,"name":"North Wilmington","longitude":-71.159696,"latitude":42.569661}},{"type":"stop","relationships":{"parent_station":{"data":null}},"links":{"self":"/stops/Ballardvale"},"id":"Ballardvale","attributes":{"wheelchair_boarding":1,"name":"Ballardvale","longitude":-71.159962,"latitude":42.627356}},{"type":"stop","relationships":{"parent_station":{"data":null}},"links":{"self":"/stops/Andover"},"id":"Andover","attributes":{"wheelchair_boarding":1,"name":"Andover","longitude":-71.144502,"latitude":42.658336}},{"type":"stop","relationships":{"parent_station":{"data":null}},"links":{"self":"/stops/Lawrence"},"id":"Lawrence","attributes":{"wheelchair_boarding":1,"name":"Lawrence","longitude":-71.15198,"latitude":42.701806}},{"type":"stop","relationships":{"parent_station":{"data":null}},"links":{"self":"/stops/Bradford"},"id":"Bradford","attributes":{"wheelchair_boarding":1,"name":"Bradford","longitude":-71.088411,"latitude":42.766912}},{"type":"stop","relationships":{"parent_station":{"data":null}},"links":{"self":"/stops/Haverhill"},"id":"Haverhill","attributes":{"wheelchair_boarding":1,"name":"Haverhill","longitude":-71.086237,"latitude":42.773474}}]}