{"jsonapi":{"version":"1.0"},"included":[{"type":"stop","relationships":{"parent_station":{"data":null}},"links":{"self":"/stops/place-sstat"},"id":"place-sstat","attributes":{"wheelchair_boarding":1,"name":"South Station","longitude":-71.055242,"latitude":42.352271}}],"data":[{"type":"stop","relationships":{"parent_station":{"data":{"type":"stop","id":"place-sstat"}}},"links":{"self":"/stops/South Station"},"id":"South Station","attributes":{"wheelchair_boarding":1,"name":"South Station","longitude":-71.05479665,"latitude":42.35176309}},{"type":"stop","relationships":{"parent_station":{"data":null}},"links":{"self":"/stops/Newmarket"},"id":"Newmarket","attributes":{"wheelchair_boarding":1,"name":"Newmarket","longitude":-71.066314,"latitude":42.326701}},{"type":"stop","relationships":{"parent_station":{"data":null}},"links":{"self":"/stops/Uphams Corner"},"id":"Uphams Corner","attributes":{"wheelchair_boarding":1,"name":"Uphams Corner","longitude":-71.069072,"latitude":42.31867}},{"type":"stop","relationships":{"parent_station":{"data":null}},"links":{"self":"/stops/Four Corners / Geneva"},"id":"Four Corners / Geneva","attributes":{"wheelchair_boarding":1,"name":"Four Corners/Geneva","longitude":-71.076833,"latitude":42.305037}},{"type":"stop","relationships":{"parent_station":{"data":null}},"links":{"self":"/stops/Talbot Avenue"},"id":"Talbot Avenue","attributes":{"wheelchair_boarding":1,"name":"Talbot Avenue","longitude":-71.07814,"latitude":42.292246}},{"type":"stop","relationships":{"parent_station":{"data":null}},"links":{"self":"/stops/Morton Street"},"id":"Morton Street","attributes":{"wheelchair_boarding":1,"name":"Morton Street","longitude":-71.085475,"latitude":42.280994}},{"type":"stop","relationships":{"parent_station":{"data":null}},"links":{"self":"/stops/Fairmount"},"id":"Fairmount","attributes":{"wheelchair_boarding":1,"name":"Fairmount","longitude":-71.11927,"latitude":42.253638}},{"type":"stop","relationships":{"parent_station":{"data":null}},"links":{"self":"/stops/Readville"},"id":"Readville","attributes":{"wheelchair_boarding":1,"name":"Readville","longitude":-71.133246,"latitude":42.238405}}]}